City_ID,City,Lat,Lng,Max Temp,Humidity,Cloudiness,Wind Speed,Country,Date
0,new norfolk,-42.7826,147.0587,13.82,66,50,0.45,AU,1678567945
1,punta arenas,-53.15,-70.9167,15.06,36,0,7.2,CL,1678567946
2,esperance,-33.8667,121.9,15.61,92,30,4.22,AU,1678567947
3,saint-philippe,-21.3585,55.7679,24.77,85,99,5.14,RE,1678567948
4,arraial do cabo,-22.9661,-42.0278,26.92,69,40,5.66,BR,1678567824
5,mahon,39.8885,4.2658,15.31,82,0,4.63,ES,1678567948
6,hobart,-42.8794,147.3294,14.01,78,75,2.57,AU,1678567808
7,margate,51.3813,1.3862,5.5,79,100,1.79,GB,1678567949
8,busselton,-33.65,115.3333,16.87,65,97,1.33,AU,1678567949
9,ushuaia,-54.8,-68.3,11.81,43,20,4.63,AR,1678567950
10,rikitea,-23.1203,-134.9692,25.32,84,72,14.11,PF,1678567922
11,shashi,30.3072,112.2447,14.38,22,99,8.01,CN,1678567950
12,bredasdorp,-34.5322,20.0403,17.08,55,89,1.91,ZA,1678567697
13,saint-pierre,-21.3393,55.4781,24.82,88,75,9.77,RE,1678567951
14,muisne,0.6,-80.0333,25.36,88,100,2.19,EC,1678567951
15,walvis bay,-22.9575,14.5053,16.16,74,0,6.11,NA,1678567952
16,kapaa,22.0752,-159.319,24.15,69,100,2.57,US,1678567952
17,namibe,-15.1961,12.1522,22.33,85,100,1.33,AO,1678567953
18,broome,42.2506,-75.833,-0.55,84,100,6.69,US,1678567953
19,vaini,-21.2,-175.2,27.09,78,75,2.57,TO,1678567953
20,bluff,-46.6,168.3333,15.43,70,88,6.44,NZ,1678567954
21,tigil,57.8,158.6667,-27.67,100,81,1.46,RU,1678567954
22,saint george,37.1041,-113.5841,19.03,54,0,7.72,US,1678567887
23,fortuna,40.5982,-124.1573,11.86,74,20,5.66,US,1678567771
24,bonthe,7.5264,-12.505,26.49,84,100,2.79,SL,1678567955
25,olafsvik,64.8945,-23.7142,-6.99,61,100,10.33,IS,1678567956
26,la tuque,47.4334,-72.7824,4.14,38,46,3.6,CA,1678567956
27,puri,19.8,85.85,23.29,75,0,3.02,IN,1678567956
28,norman wells,65.282,-126.8329,-18.98,65,75,1.03,CA,1678567957
29,barrow,71.2906,-156.7887,-24.99,77,0,3.6,US,1678567957
30,kollam,8.8833,76.6,24.84,79,43,2.34,IN,1678567958
31,dikson,73.5069,80.5464,-16.36,93,100,6.0,RU,1678567958
32,huarmey,-10.0681,-78.1522,26.49,73,64,4.3,PE,1678567958
33,kawalu,-7.3817,108.2082,21.7,97,66,0.39,ID,1678567959
34,tuktoyaktuk,69.4541,-133.0374,-16.0,85,100,8.75,CA,1678567959
35,east london,-33.0153,27.9116,20.62,74,71,7.26,ZA,1678567960
36,jamestown,42.097,-79.2353,-0.23,83,100,4.12,US,1678567928
37,alofi,-19.0595,-169.9187,24.94,22,100,1.54,NU,1678567960
38,riosucio,5.4216,-75.7032,16.19,94,100,0.76,CO,1678567961
39,port moresby,-9.4431,147.1797,24.68,88,20,2.57,PG,1678567961
40,hastings,50.8552,0.5729,6.4,52,100,5.52,GB,1678567962
41,mataura,-46.1927,168.8643,15.93,56,96,2.38,NZ,1678567962
42,bathsheba,13.2167,-59.5167,28.34,65,40,7.72,BB,1678567962
43,poya,-21.35,165.15,25.8,67,5,2.13,NC,1678567695
44,albany,42.6001,-73.9662,4.38,71,99,0.45,US,1678567963
45,katsuura,35.1333,140.3,12.11,63,0,2.1,JP,1678567963
46,port alfred,-33.5906,26.891,19.54,83,86,2.24,ZA,1678567964
47,vostok,46.4856,135.8833,-4.9,98,100,1.0,RU,1678567964
48,awjilah,29.1081,21.2869,17.57,47,0,3.71,LY,1678567965
49,hermanus,-34.4187,19.2345,15.45,60,80,3.84,ZA,1678567965
50,zhanaozen,43.3,52.8,10.46,59,2,6.21,KZ,1678567965
51,salinas,36.6777,-121.6555,20.91,64,75,4.12,US,1678567966
52,yellowknife,62.456,-114.3525,-17.71,60,20,6.17,CA,1678567815
53,zinder,13.8072,8.9881,25.96,9,87,4.52,NE,1678567966
54,leningradskiy,69.3833,178.4167,-27.28,92,12,2.62,RU,1678567967
55,port lincoln,-34.7333,135.8667,15.72,79,8,4.56,AU,1678567967
56,lokhvytsya,50.3678,33.2602,9.24,93,100,7.74,UA,1678567968
57,butaritari,3.0707,172.7902,27.52,76,4,6.67,KI,1678567968
58,krutinka,56.0055,71.5113,-5.43,92,70,5.17,RU,1678567968
59,college,64.8569,-147.8028,-6.55,81,20,0.0,US,1678567969
60,atuona,-9.8,-139.0333,26.68,77,84,3.69,PF,1678567969
61,at-bashi,41.1702,75.8106,-5.27,77,81,3.24,KG,1678567970
62,faya,18.3851,42.4509,15.06,76,41,2.37,SA,1678567970
63,eureka,40.8021,-124.1637,12.04,62,100,3.13,US,1678567971
64,airai,-8.9266,125.4092,14.27,91,6,0.46,TL,1678567971
65,nikolskoye,59.7035,30.7861,-4.06,98,100,3.25,RU,1678567972
66,tura,25.5198,90.2201,20.8,28,1,1.32,IN,1678567972
67,lebu,-37.6167,-73.65,17.67,77,85,7.78,CL,1678567972
68,yuscaran,13.9333,-86.85,29.58,37,59,1.35,HN,1678567973
69,minab,27.1467,57.0801,20.18,68,0,0.0,IR,1678567973
70,arman,59.7,150.1667,-15.35,88,100,2.49,RU,1678567974
71,sistranda,63.7256,8.834,-3.02,71,65,10.61,NO,1678567974
72,labrea,-7.2586,-64.7981,23.2,98,100,0.82,BR,1678567975
73,corpus christi,27.8006,-97.3964,33.13,69,20,8.75,US,1678567729
74,whitehorse,60.7161,-135.0538,-11.06,59,20,3.09,CA,1678567975
75,kruisfontein,-34.0033,24.7314,18.27,66,45,3.49,ZA,1678567926
76,harwich,51.9419,1.2844,4.72,79,100,2.68,GB,1678567976
77,tukrah,32.5341,20.5791,15.88,80,12,7.05,LY,1678567976
78,port-gentil,-0.7193,8.7815,26.98,83,20,5.66,GA,1678567977
79,khatanga,71.9667,102.5,-30.47,100,56,3.08,RU,1678567973
80,port hardy,50.6996,-127.4199,8.1,61,75,6.17,CA,1678567977
81,ruteng,-8.6136,120.4721,15.15,87,10,0.42,ID,1678567978
82,taldan,53.6667,124.8,-15.81,85,100,4.03,RU,1678567978
83,lavrentiya,65.5833,-171.0,-13.65,90,100,2.52,RU,1678567978
84,crestview,30.7621,-86.5705,23.38,52,100,1.79,US,1678567979
85,mirador,-6.3708,-44.3631,25.18,90,100,0.53,BR,1678567979
86,carnarvon,-24.8667,113.6333,24.01,76,0,10.47,AU,1678567980
87,vadso,70.0744,29.7487,-6.91,63,16,8.75,NO,1678567704
88,coihaique,-45.5752,-72.0662,17.34,94,100,1.54,CL,1678567691
89,tasiilaq,65.6145,-37.6368,-10.91,67,0,2.12,GL,1678567980
90,rio gallegos,-51.6226,-69.2181,13.03,35,0,10.8,AR,1678567981
91,thompson,55.7435,-97.8558,-6.91,45,20,2.57,CA,1678567887
92,avarua,-21.2078,-159.775,26.03,94,100,6.69,CK,1678567982
93,sur,22.5667,59.5289,25.52,51,99,2.38,OM,1678567982
94,cabo san lucas,22.8909,-109.9124,32.88,52,0,4.46,MX,1678567983
95,baijiantan,45.6333,85.1833,4.04,27,100,2.68,CN,1678567983
96,beringovskiy,63.05,179.3167,-15.28,89,90,5.6,RU,1678567984
97,tumaco,1.7986,-78.8156,26.15,84,100,1.59,CO,1678567984
98,gerash,27.6652,54.1371,15.08,45,0,1.43,IR,1678567985
99,adrar,20.5022,-10.0711,26.69,9,0,5.56,MR,1678567985
100,san nicolas,18.1725,120.5953,20.94,73,9,2.25,PH,1678567986
101,qaqortoq,60.7167,-46.0333,-5.64,77,3,2.86,GL,1678567986
102,vestmannaeyjar,63.4427,-20.2734,-7.48,50,59,5.07,IS,1678567987
103,tiksi,71.6872,128.8694,-24.87,97,67,3.56,RU,1678567988
104,waddan,29.1614,16.139,19.2,33,1,1.0,LY,1678567988
105,yarensk,62.1675,49.0916,-8.1,98,99,2.28,RU,1678567988
106,gornopravdinsk,60.05,69.9,-7.39,91,93,5.1,RU,1678567989
107,geraldton,-28.7667,114.6,16.23,94,2,2.57,AU,1678567897
108,oranjemund,-28.55,16.4333,17.22,85,0,7.9,NA,1678567990
109,puerto ayora,-0.7393,-90.3518,29.98,81,51,3.58,EC,1678567990
110,ayagoz,47.9714,80.4392,1.04,78,100,2.19,KZ,1678567991
111,veraval,20.9,70.3667,25.2,41,5,5.78,IN,1678567991
112,havelock,34.8791,-76.9013,13.98,43,0,8.75,US,1678567992
113,noyabrsk,63.1994,75.4507,-9.49,91,100,15.21,RU,1678567993
114,tilichiki,60.4667,166.1,-24.74,91,12,4.24,RU,1678567994
115,castro,-24.7911,-50.0119,18.95,97,100,3.22,BR,1678567994
116,salalah,17.0151,54.0924,26.05,78,0,0.51,OM,1678567995
117,husavik,66.0449,-17.3389,-8.92,80,100,5.5,IS,1678567995
118,kalmunai,7.4167,81.8167,24.46,88,38,2.54,LK,1678567996
119,rudsar,37.1376,50.288,11.99,64,7,3.71,IR,1678567996
120,hami,42.8,93.45,5.66,25,2,4.34,CN,1678567997
121,cranbrook,49.4999,-115.7688,-2.09,50,75,3.6,CA,1678567927
122,mogadishu,2.0371,45.3438,26.33,88,89,8.16,SO,1678567997
123,mahebourg,-20.4081,57.7,26.16,83,75,6.17,MU,1678567998
124,provideniya,64.3833,-173.3,-9.51,94,100,1.15,RU,1678567998
125,jizan,17.3333,42.6667,27.52,64,65,0.96,SA,1678567998
126,new baltimore,42.6811,-82.7369,5.08,60,75,3.6,US,1678567876
127,baoshan,46.5586,131.4244,-2.77,52,100,2.06,CN,1678567999
128,yinchuan,38.4681,106.2731,-1.34,19,0,2.75,CN,1678567999
129,tazovskiy,67.4667,78.7,-9.73,94,100,9.69,RU,1678567845
130,yulara,-25.2406,130.9889,20.63,26,0,3.24,AU,1678568000
131,upernavik,72.7868,-56.1549,-22.21,82,68,2.1,GL,1678567762
132,kloulklubed,7.0419,134.2556,24.28,76,31,4.91,PW,1678568001
133,torata,-17.0769,-70.8433,14.92,83,100,3.18,PE,1678568001
134,komsomolskiy,40.4272,71.7189,13.4,71,85,2.06,UZ,1678568002
135,pevek,69.7008,170.3133,-29.38,98,46,4.49,RU,1678567899
136,cape town,-33.9258,18.4232,16.73,71,0,5.66,ZA,1678567803
137,ambilobe,-13.2,49.05,23.02,97,100,0.54,MG,1678568002
138,qaanaaq,77.484,-69.3632,-19.99,69,4,1.55,GL,1678568003
139,linhares,-19.3911,-40.0722,25.35,70,91,3.13,BR,1678567996
140,mandalgovi,45.7625,106.2708,-7.62,31,0,4.7,MN,1678568003
141,berlevag,70.8578,29.0864,-8.03,57,48,10.8,NO,1678568004
142,inta,66.0317,60.1659,-9.49,93,100,7.19,RU,1678568004
143,madingou,-4.1536,13.55,22.73,97,100,1.14,CG,1678568005
144,magistralnyy,56.1725,107.4458,-10.79,90,100,3.95,RU,1678568005
145,portland,45.5234,-122.6762,11.82,69,75,3.09,US,1678567873
146,dolores,-36.3132,-57.6792,30.63,50,69,6.71,AR,1678568007
147,cidreira,-30.1811,-50.2056,25.66,83,57,5.65,BR,1678568007
148,bethel,41.3712,-73.414,5.57,71,95,0.89,US,1678568008
149,narsaq,60.9167,-46.05,3.12,73,3,3.41,GL,1678568008
150,freeport,40.6576,-73.5832,7.25,66,100,7.72,US,1678568008
151,springfield,37.2153,-93.2982,5.68,91,100,6.71,US,1678567863
152,saint-joseph,-21.3667,55.6167,24.21,83,99,5.52,RE,1678567970
153,ilulissat,69.2167,-51.1,-4.99,39,0,4.12,GL,1678568009
154,banda aceh,5.5577,95.3222,25.69,82,100,1.14,ID,1678568010
155,nouadhibou,20.931,-17.0347,18.99,82,0,8.23,MR,1678568010
156,aljezur,37.3191,-8.8033,14.06,95,96,2.63,PT,1678568010
157,corn island,12.1694,-83.0418,25.96,67,57,3.95,NI,1678568011
158,dong hoi,17.4833,106.6,19.97,92,86,0.61,VN,1678568011
159,barao de melgaco,-16.1944,-55.9675,23.85,91,98,3.18,BR,1678568012
160,mayskiy,47.6931,40.1025,12.67,69,100,7.44,RU,1678568012
161,mabaruma,8.2,-59.7833,26.1,68,100,2.89,GY,1678568013
162,hilo,19.7297,-155.09,27.93,77,100,2.57,US,1678567787
163,port blair,11.6667,92.75,25.72,73,56,0.73,IN,1678568013
164,muros,42.7762,-9.0603,15.61,90,94,4.69,ES,1678568014
165,asau,46.4333,26.4,5.71,67,43,5.7,RO,1678568014
166,panama city,8.9936,-79.5197,29.97,65,40,4.12,PA,1678567876
167,palia kalan,28.45,80.5833,17.57,32,5,1.44,IN,1678568015
168,reconquista,-29.15,-59.65,38.31,19,0,4.93,AR,1678568016
169,pangnirtung,66.1451,-65.7125,-18.0,85,0,0.0,CA,1678567970
170,bindura,-17.3019,31.3306,18.53,84,100,1.56,ZW,1678568016
171,cockburn town,21.4612,-71.1419,23.81,60,68,1.91,TC,1678568017
172,tuatapere,-46.1333,167.6833,14.86,78,97,3.41,NZ,1678568017
173,kaitangata,-46.2817,169.8464,14.27,65,98,1.87,NZ,1678567978
174,comodoro rivadavia,-45.8667,-67.5,21.92,46,20,7.2,AR,1678568018
175,barberton,-25.7884,31.0532,22.03,92,0,0.62,ZA,1678568018
176,pokhara,28.2333,83.9833,16.11,30,27,2.84,NP,1678568018
177,saint anthony,45.0205,-93.218,0.07,87,100,6.69,US,1678568019
178,sorland,67.667,12.6934,-0.08,48,61,6.52,NO,1678567924
179,merrill,45.1805,-89.6835,-0.57,77,100,3.6,US,1678567863
180,san patricio,28.017,-97.5169,33.42,41,0,7.58,US,1678568020
181,lompoc,34.6391,-120.4579,19.08,90,100,4.12,US,1678568020
182,souillac,-20.5167,57.5167,26.21,83,75,6.17,MU,1678568020
183,fairmont,39.4851,-80.1426,3.54,71,100,2.52,US,1678568021
184,belyy yar,53.6039,91.3903,-3.06,82,100,1.0,RU,1678568021
185,ribeira grande,38.5167,-28.7,18.22,88,40,10.8,PT,1678568022
186,macaubas,-13.0194,-42.6986,27.73,44,92,2.47,BR,1678568022
187,georgetown,5.4112,100.3354,26.96,94,20,1.54,MY,1678568022
188,severo-yeniseyskiy,60.3725,93.0408,-2.72,79,100,3.68,RU,1678568023
189,krapivinskiy,54.9992,86.8133,1.21,99,100,6.68,RU,1678568023
190,tessalit,20.1986,1.0114,32.54,9,89,3.37,ML,1678567902
191,smithers,54.7804,-127.1743,-6.82,45,75,4.12,CA,1678568024
192,japura,-0.3167,102.35,22.03,100,85,0.72,ID,1678568024
193,bandrele,-12.9067,45.1914,25.86,89,0,1.54,YT,1678568025
194,ust-kuyga,70.0167,135.6,-28.02,100,94,1.43,RU,1678568025
195,inhambane,-23.865,35.3833,24.7,91,13,2.78,MZ,1678568025
196,campbell river,50.0163,-125.2446,7.74,70,75,5.66,CA,1678568026
197,raymond,43.9015,-70.4703,4.71,53,100,3.93,US,1678568026
198,abu dhabi,24.4667,54.3667,25.06,68,0,2.06,AE,1678567965
199,dhidhdhoo,6.8833,73.1,27.41,76,6,3.44,MV,1678568027
200,weligama,5.9667,80.4167,23.67,89,69,3.13,LK,1678568028
201,gorom-gorom,14.4439,-0.2361,32.97,11,96,4.42,BF,1678568028
202,kodiak,57.79,-152.4072,3.73,28,0,5.66,US,1678567999
203,vanimo,-2.6741,141.3028,25.02,86,100,1.52,PG,1678568029
204,isangel,-19.55,169.2667,26.29,66,2,5.59,VU,1678568029
205,takab,36.4009,47.1133,4.17,70,13,0.32,IR,1678568029
206,saskylakh,71.9167,114.0833,-24.27,91,99,3.45,RU,1678568004
207,chokurdakh,70.6333,147.9167,-33.04,96,41,1.75,RU,1678568030
208,nyurba,63.2842,118.3319,-33.26,100,100,1.59,RU,1678568031
209,mar del plata,-38.0023,-57.5575,26.02,95,40,5.14,AR,1678568031
210,lagoa,39.05,-27.9833,16.64,91,100,14.19,PT,1678568031
211,san quintin,30.4833,-115.95,19.13,73,98,6.36,MX,1678568032
212,kumba,4.6363,9.4469,23.72,91,95,0.69,CM,1678568032
213,quatre cocos,-20.2078,57.7625,26.06,82,85,6.32,MU,1678568033
214,valdemarpils,57.3707,22.5919,-2.09,77,100,6.7,LV,1678568033
215,ponta do sol,32.6667,-17.1,20.0,73,76,2.54,PT,1678568034
216,aklavik,68.2191,-135.0107,-18.0,65,20,2.06,CA,1678568034
217,svidnik,49.3082,21.5703,1.68,73,98,6.92,SK,1678568034
218,te anau,-45.4167,167.7167,12.7,93,100,3.13,NZ,1678568035
219,port-cartier,50.0334,-66.8654,1.12,75,20,0.86,CA,1678568035
220,faanui,-16.4833,-151.75,27.95,78,97,8.49,PF,1678568036
221,miragoane,18.4423,-73.0876,25.95,67,71,1.86,HT,1678568036
222,odweyne,9.4092,45.064,25.29,49,91,3.78,SO,1678568036
223,khed brahma,24.0333,73.05,22.95,21,21,1.91,IN,1678568037
224,lac du bonnet,50.2536,-96.0612,-5.39,77,100,6.0,CA,1678568037
225,eresos,39.1667,25.9333,14.94,77,100,5.62,GR,1678568038
226,iqaluit,63.7506,-68.5145,-19.15,78,20,0.0,CA,1678568038
227,vila velha,-20.3297,-40.2925,28.97,82,20,6.17,BR,1678568039
228,tautira,-17.7333,-149.15,27.91,82,49,7.09,PF,1678568039
229,talas,38.6908,35.5538,12.37,38,75,6.17,TR,1678568039
230,lovozero,68.005,35.0117,-12.14,94,100,1.87,RU,1678568040
231,yantzaza,-3.8278,-78.7594,22.5,93,91,0.91,EC,1678568040
232,cottonwood heights,40.6197,-111.8102,6.96,62,69,0.89,US,1678568041
233,caravelas,-17.7125,-39.2481,25.15,78,100,2.77,BR,1678567976
234,niltepec,16.5667,-94.6167,33.48,41,0,5.41,MX,1678568041
235,coeneo,19.8167,-101.5833,27.94,18,36,1.64,MX,1678568042
236,atar,20.5169,-13.0499,28.94,8,0,3.52,MR,1678568042
237,omboue,-1.5746,9.2618,24.75,87,100,1.64,GA,1678568043
238,tual,-5.6667,132.75,27.84,74,100,2.32,ID,1678568044
239,mvangue,2.9667,11.5167,19.8,94,100,0.22,CM,1678568044
240,paciran,-6.8767,112.3761,24.33,89,100,3.38,ID,1678568045
241,houma,29.5958,-90.7195,27.78,71,18,4.02,US,1678568045
242,chapais,49.7834,-74.8492,-4.12,79,100,3.58,CA,1678568046
243,mizdah,31.4451,12.9801,18.35,35,2,2.65,LY,1678568046
244,cayenne,4.9333,-52.3333,29.02,70,75,5.14,GF,1678567978
245,moerai,-22.4333,-151.3333,25.66,77,100,7.56,PF,1678568047
246,bestobe,52.4994,73.0975,1.04,91,100,4.98,KZ,1678568047
247,talnakh,69.4865,88.3972,-9.33,96,100,4.35,RU,1678568047
248,luderitz,-26.6481,15.1594,17.98,74,0,8.65,NA,1678567930
249,buchanan,5.8808,-10.0467,26.16,84,93,2.61,LR,1678568048
250,kutum,14.2,24.6667,20.87,11,21,5.11,SD,1678568048
251,boa vista,2.8197,-60.6733,28.99,54,75,5.14,BR,1678568049
252,sambava,-14.2667,50.1667,24.88,87,74,3.94,MG,1678568049
253,dingle,10.9995,122.6711,23.23,89,7,3.09,PH,1678568050
254,jinxiang,27.4327,120.6062,16.02,77,86,2.09,CN,1678568050
255,burnie,-41.0667,145.9167,12.19,85,4,4.9,AU,1678568051
256,warrington,53.3925,-2.5802,3.81,94,100,4.63,GB,1678568052
257,cherskiy,68.75,161.3,-26.69,89,43,3.98,RU,1678567895
258,ketchikan,55.3422,-131.6461,3.26,41,75,2.06,US,1678568052
259,nanakuli,21.3906,-158.1547,26.65,64,0,2.57,US,1678568053
260,taltal,-25.4,-70.4833,21.89,75,38,2.17,CL,1678568053
261,bambous virieux,-20.3428,57.7575,26.14,83,75,6.17,MU,1678568054
262,nanortalik,60.1432,-45.2371,-1.7,77,27,0.73,GL,1678568054
263,kyshtovka,56.555,76.6271,0.24,88,100,6.33,RU,1678568054
264,severo-kurilsk,50.6789,156.125,-0.2,90,100,3.73,RU,1678568038
265,praia da vitoria,38.7333,-27.0667,17.64,100,75,14.26,PT,1678568055
266,kaeo,-35.1,173.7833,17.4,97,74,1.33,NZ,1678568056
267,lishu,43.3047,124.3278,-5.65,25,61,4.51,CN,1678568056
268,yarada,17.65,83.2667,22.18,100,0,1.03,IN,1678568057
269,sakhon nakhon,17.1612,104.1472,20.46,68,89,3.04,TH,1678568057
270,sokoto,13.0609,5.239,30.37,11,98,4.25,NG,1678568058
271,sangueya,10.7,-14.3667,23.67,78,0,2.09,GN,1678568058
272,svetlyy,54.675,20.1347,1.09,71,15,7.2,RU,1678568059
273,jiayuguan,39.8167,98.3,-1.81,33,0,1.96,CN,1678568059
274,shimoda,34.6667,138.95,9.5,71,15,2.0,JP,1678568060
275,troitsko-pechorsk,62.7084,56.1964,-12.61,97,84,2.39,RU,1678568060
276,maroantsetra,-15.4333,49.7333,25.04,86,94,2.31,MG,1678568061
277,cap-aux-meules,47.3821,-61.8597,0.03,86,20,8.23,CA,1678568061
278,sabha,27.0377,14.4283,20.25,22,0,3.18,LY,1678568062
279,gazanjyk,39.2446,55.5154,14.47,53,0,4.46,TM,1678568062
280,mount gambier,-37.8333,140.7667,12.16,94,15,1.96,AU,1678567803
281,cervo,43.6702,-7.4101,15.54,87,100,5.17,ES,1678568063
282,kirovskiy,45.0917,133.5136,-1.02,94,100,2.49,RU,1678568063
283,berezovyy,51.6667,135.7,-12.88,90,33,2.23,RU,1678568064
284,rochester,43.1548,-77.6156,1.18,71,75,3.09,US,1678568064
285,nuevo casas grandes,30.4167,-107.9167,23.73,20,40,9.08,MX,1678568065
286,marrakesh,31.6315,-8.0083,26.04,27,0,2.57,MA,1678568065
287,pucara,-15.9803,-71.4606,0.07,89,94,3.84,PE,1678568066
288,richards bay,-28.783,32.0377,24.93,88,28,0.95,ZA,1678568066
289,chuy,-33.6971,-53.4616,27.05,66,5,6.14,UY,1678568067
290,straumen,63.8709,11.2999,-5.0,76,73,4.94,NO,1678568067
291,zeya,53.75,127.2667,-13.1,97,100,0.81,RU,1678568068
292,mocuba,-16.8392,36.9856,22.82,97,100,7.32,MZ,1678568068
293,mehamn,71.0357,27.8492,-8.05,62,5,9.77,NO,1678568069
294,zilair,52.2332,57.4392,-10.98,94,26,1.37,RU,1678568069
295,partenit,44.578,34.3446,9.85,96,100,4.1,UA,1678568069
296,paamiut,61.994,-49.6678,-2.87,78,99,3.14,GL,1678568070
297,melfort,52.8667,-104.6177,-7.93,67,100,5.14,CA,1678568070
298,kununurra,-15.7667,128.7333,20.99,94,3,0.0,AU,1678568071
299,porto novo,6.4965,2.6036,27.9,77,82,3.68,BJ,1678568071
300,bonfim,3.0833,-59.95,31.62,44,95,4.62,BR,1678567996
301,naples,40.8333,14.25,15.21,93,75,0.51,IT,1678567926
302,ampanihy,-24.7,44.75,22.86,80,78,2.29,MG,1678568072
303,okhotsk,59.3833,143.3,-11.69,93,100,6.39,RU,1678568072
304,vryburg,-26.9566,24.7284,20.2,29,0,2.26,ZA,1678568073
305,cuautepec,16.7,-99.0,29.22,50,1,4.1,MX,1678568073
306,longyearbyen,78.2186,15.6401,-8.09,73,75,7.72,SJ,1678568074
307,hovd,48.0056,91.6419,-2.78,25,98,1.4,MN,1678568074
308,simao,22.7886,100.9748,16.47,35,100,0.47,CN,1678568074
309,mandurah,-32.55,115.7,17.23,46,7,1.5,AU,1678568075
310,moron,-34.6534,-58.6198,38.94,34,0,3.59,AR,1678568075
311,khuzdar,27.7384,66.6434,18.92,25,98,2.27,PK,1678568076
312,price,39.5994,-110.8107,7.59,49,75,0.0,US,1678568076
313,morros,-9.4467,-46.3003,29.07,50,94,2.65,BR,1678567894
314,izumo,35.3667,132.7667,8.97,74,100,2.23,JP,1678568076
315,hamilton,39.1834,-84.5333,8.51,54,0,2.24,US,1678568077
316,luau,-10.7073,22.2247,17.26,97,100,1.04,AO,1678568077
317,kirakira,-10.4544,161.9205,25.59,89,100,0.34,SB,1678568078
318,merauke,-8.4667,140.3333,26.14,83,100,1.72,ID,1678568078
319,strelka,58.0728,93.0344,-4.89,95,100,2.3,RU,1678568079
320,naze,28.3667,129.4833,18.51,60,100,4.42,JP,1678568079
321,edeia,-17.3383,-49.9314,21.12,95,100,1.79,BR,1678568079
322,tromso,69.6496,18.957,-2.99,74,75,8.75,NO,1678568080
323,ryotsu,38.0833,138.4333,10.18,61,85,1.24,JP,1678568080
324,ancud,-41.8697,-73.8203,15.58,93,100,12.72,CL,1678568081
325,araouane,18.9048,-3.5265,30.84,9,75,2.45,ML,1678568081
326,gat,31.61,34.7642,17.44,37,87,1.65,IL,1678568082
327,clyde river,70.4692,-68.5914,-15.87,78,20,8.23,CA,1678568082
328,lantana,26.5867,-80.052,31.69,51,40,5.14,US,1678568083
329,lichinga,-13.3128,35.2406,20.05,94,75,2.06,MZ,1678568083
330,belmonte,-15.8631,-38.8828,25.92,73,15,3.43,BR,1678567934
331,ahuimanu,21.4447,-157.8378,26.52,63,0,3.09,US,1678568084
332,kawhia,-38.0651,174.8183,18.33,69,100,3.09,NZ,1678568084
333,peyima,8.7,-11.0333,27.24,53,100,2.25,SL,1678568085
334,tolmachevo,54.9824,82.7363,0.99,93,100,5.0,RU,1678568085
335,grindavik,63.8424,-22.4338,-8.74,48,75,9.77,IS,1678567793
336,qui nhon,13.7667,109.2333,22.52,77,89,3.79,VN,1678568086
337,wajima,37.4,136.9,10.86,71,98,2.55,JP,1678568086
338,mazara del vallo,37.6641,12.588,15.97,87,31,8.61,IT,1678568086
339,agadez,19.75,10.25,24.1,13,93,1.79,NE,1678568087
340,aktas,49.7789,72.9608,-0.14,99,100,3.21,KZ,1678568087
341,aguimes,27.9054,-15.4461,18.7,88,20,7.2,ES,1678568088
342,nova olinda do norte,-3.8881,-59.0942,27.48,92,66,0.51,BR,1678568088
343,taoudenni,22.6783,-3.9836,30.4,9,0,9.27,ML,1678568088
344,umm bab,25.2142,50.8072,19.71,79,6,5.68,QA,1678568089
345,lazaro cardenas,17.9583,-102.2,27.63,57,2,4.4,MX,1678568089
346,quelimane,-17.8786,36.8883,24.21,96,100,10.16,MZ,1678568090
347,port elizabeth,-33.918,25.5701,19.62,80,10,2.24,ZA,1678567923
348,hasaki,35.7333,140.8333,8.45,62,2,2.14,JP,1678568090
349,portobelo,9.55,-79.65,26.73,70,100,4.87,PA,1678568091
350,sao filipe,14.8961,-24.4956,24.47,62,0,2.6,CV,1678568091
351,hithadhoo,-0.6,73.0833,27.55,72,14,2.69,MV,1678567896
352,thinadhoo,0.5333,72.9333,27.65,74,14,3.94,MV,1678568092
353,kidal,18.4411,1.4078,31.43,10,50,2.67,ML,1678568092
354,pionki,51.476,21.4499,-0.23,93,68,7.08,PL,1678567929
355,verkhoyansk,67.5447,133.385,-27.69,100,100,0.7,RU,1678568092
356,basco,20.4487,121.9702,22.44,63,13,6.43,PH,1678568093
357,anadyr,64.75,177.4833,-24.72,84,0,3.0,RU,1678568093
358,rabo de peixe,37.8,-25.5833,16.73,94,75,7.2,PT,1678568094
359,pingyin,36.2831,116.4453,4.89,35,94,9.05,CN,1678568094
360,marathon,44.9,-89.7668,-0.42,77,100,3.6,US,1678568095
361,bosaso,11.2842,49.1816,25.66,82,76,0.94,SO,1678568095
362,mangai,-4.05,19.5333,21.07,99,100,0.31,CD,1678568095
363,bang saphan,11.2126,99.5117,22.24,94,68,0.91,TH,1678568096
364,virginia beach,36.8529,-75.978,11.68,50,75,9.26,US,1678568067
365,shingu,33.7333,135.9833,12.46,84,97,2.21,JP,1678567991
366,pundaguitan,6.3711,126.1689,26.23,80,82,2.89,PH,1678568097
367,aswan,24.0934,32.907,22.61,23,0,0.0,EG,1678568058
368,togur,58.3631,82.8265,-0.71,85,100,5.38,RU,1678568097
369,rawson,-43.3002,-65.1023,33.84,19,56,5.48,AR,1678568098
370,hammerfest,70.6634,23.6821,-5.75,58,93,2.06,NO,1678568098
371,deputatskiy,69.3,139.9,-24.25,95,100,0.66,RU,1678568098
372,hanzhong,33.0728,107.0303,8.52,49,100,1.56,CN,1678568099
373,ozieri,40.586,9.0012,12.04,93,62,7.09,IT,1678568099
374,san borja,-14.8167,-66.85,29.51,71,94,1.16,BO,1678568100
375,urucara,-2.5364,-57.76,27.94,83,53,1.01,BR,1678568100
376,levelland,33.5873,-102.378,26.77,16,98,12.44,US,1678568101
377,kieta,-6.2167,155.6333,26.49,78,61,1.1,PG,1678568101
378,acari,-15.4311,-74.6158,27.8,63,76,3.84,PE,1678568101
379,brasileia,-11.0161,-68.7481,28.25,78,75,1.03,BR,1678568102
380,neiafu,-18.65,-173.9833,26.38,89,75,2.57,TO,1678568102
381,lakes entrance,-37.8811,147.981,15.09,93,87,2.5,AU,1678568103
382,sisimiut,66.9395,-53.6735,-11.1,77,4,2.07,GL,1678568104
383,newport,51.5877,-2.9984,8.03,94,100,4.27,GB,1678568105
384,buala,-8.145,159.5921,26.95,83,99,1.8,SB,1678568105
385,flinders,-34.5833,150.8552,21.77,82,72,2.68,AU,1678567896
386,vila franca do campo,37.7167,-25.4333,17.23,96,100,9.82,PT,1678568106
387,tomatlan,19.9333,-105.25,29.48,47,6,4.85,MX,1678568106
388,bengkulu,-3.8004,102.2655,23.49,90,100,1.41,ID,1678568087
389,nsanje,-16.92,35.262,23.79,93,100,3.44,MW,1678568107
390,mount vernon,40.9126,-73.8371,7.13,69,75,9.26,US,1678568107
391,victoria,22.2855,114.1577,21.78,90,49,1.35,HK,1678567853
392,sampit,-2.5333,112.95,23.05,98,94,1.1,ID,1678568108
393,necochea,-38.5473,-58.7368,28.07,63,4,8.39,AR,1678568009
394,kavaratti,10.5669,72.642,27.64,64,7,1.48,IN,1678568109
395,sarkand,45.41,79.9186,12.93,37,100,3.64,KZ,1678568109
396,howard springs,-12.497,131.047,25.95,85,21,1.25,AU,1678568110
397,bambanglipuro,-7.95,110.2833,24.07,86,61,1.14,ID,1678568110
398,aksu,41.1231,80.2644,7.13,29,6,1.42,CN,1678568111
399,concepcion del uruguay,-32.4825,-58.2372,38.32,33,0,0.89,AR,1678568111
400,guerrero negro,27.9769,-114.0611,20.95,62,4,10.11,MX,1678568112
401,srandakan,-7.9386,110.2506,24.17,86,61,1.3,ID,1678568112
402,alice springs,-23.7,133.8833,15.75,44,0,2.57,AU,1678568113
403,the valley,18.217,-63.0578,26.92,69,20,3.6,AI,1678568113
404,san-pedro,4.7485,-6.6363,27.05,85,48,3.93,CI,1678568113
405,yichang,30.7144,111.2847,15.56,30,99,4.56,CN,1678568114
406,onda,39.9667,-0.25,21.47,50,96,3.12,ES,1678568114
407,touros,-5.1989,-35.4608,27.02,79,19,5.86,BR,1678567922
408,la ronge,55.1001,-105.2842,-6.86,58,75,5.66,CA,1678568115
409,yining,29.0361,114.5636,12.98,49,49,2.24,CN,1678568116
410,punta gorda,26.9298,-82.0454,29.03,68,20,8.05,US,1678568116
411,lincoln,40.8,-96.667,1.95,94,100,3.6,US,1678567825
412,sola,-13.8833,167.55,26.34,82,100,5.35,VU,1678568117
413,utinga,-5.8172,-35.3954,28.22,89,20,5.66,BR,1678568117
414,general roca,-39.0333,-67.5833,35.35,7,0,4.99,AR,1678568118
415,san lawrenz,36.0553,14.204,17.7,71,8,3.13,MT,1678568118
416,hay river,60.8156,-115.7999,-17.02,65,20,4.12,CA,1678568119
417,santa maria,-29.6842,-53.8069,31.61,55,20,5.14,BR,1678568006
418,limbang,4.75,115.0,26.06,90,100,2.21,MY,1678568119
419,klaksvik,62.2266,-6.589,-4.49,51,100,4.4,FO,1678568120
420,adeje,28.1227,-16.726,25.61,48,0,4.63,ES,1678568120
421,formosa,-26.1775,-58.1781,36.65,37,20,2.57,AR,1678567874
422,torbay,47.6666,-52.7314,1.82,96,100,8.75,CA,1678568121
423,mackay,-21.15,149.2,23.71,87,10,2.75,AU,1678568121
424,kolda,12.8833,-14.95,30.21,19,1,0.77,SN,1678568122
425,bandarbeyla,9.4942,50.8122,25.38,82,6,5.69,SO,1678568123
426,bakchar,57.0186,82.0711,-0.39,86,99,5.02,RU,1678568123
427,harper,4.375,-7.7169,26.82,86,38,3.91,LR,1678568123
428,roseville,38.7521,-121.288,13.42,89,100,2.06,US,1678567910
429,karachi,24.9056,67.0822,24.9,27,100,0.0,PK,1678568124
430,puerto baquerizo moreno,-0.9,-89.6,29.55,66,20,1.54,EC,1678567978
431,pandan,14.0453,124.1694,23.48,79,39,3.63,PH,1678568125
432,samagaltay,50.6022,95.0047,-11.15,76,100,0.68,RU,1678568125
433,garden city,42.3256,-83.331,4.97,52,100,1.54,US,1678568126
434,kilindoni,-7.9139,39.6668,27.4,76,100,6.21,TZ,1678568126
435,dubbo,-32.25,148.6167,18.07,88,0,3.6,AU,1678567945
436,valdivia,-39.8142,-73.2459,21.05,76,62,5.19,CL,1678568127
437,padang,-0.9492,100.3543,24.38,88,100,1.29,ID,1678568127
438,urumqi,43.801,87.6005,-0.47,80,0,1.0,CN,1678568128
439,guangyuan,32.442,105.823,11.17,13,100,5.23,CN,1678568128
440,przasnysz,53.0191,20.8803,-0.35,77,12,6.74,PL,1678568129
441,grand-santi,4.25,-54.3833,24.9,93,92,1.66,GF,1678568129
442,praia,14.9215,-23.5087,26.3,44,0,9.26,CV,1678568130
443,manoel urbano,-8.8389,-69.2597,22.81,96,100,0.49,BR,1678568130
444,kambove,-10.8764,26.5969,17.14,96,100,0.79,CD,1678568131
445,savannah bight,16.45,-85.85,26.01,74,2,7.07,HN,1678568131
446,zhangye,38.9342,100.4517,0.26,35,0,2.91,CN,1678568132
447,maruko,36.3167,138.2667,5.69,80,88,1.56,JP,1678568132
448,villarrica,-25.75,-56.4333,31.61,54,5,1.64,PY,1678568132
449,touba,8.2833,-7.6833,25.04,70,94,3.18,CI,1678568133
450,shelabolikha,53.4131,82.6167,1.66,98,100,8.15,RU,1678568133
451,jimo,36.3897,120.4622,4.88,65,0,10.0,CN,1678568134
452,batangafo,7.3008,18.2833,27.86,28,34,1.83,CF,1678568134
453,phan thiet,10.9333,108.1,20.33,88,30,2.86,VN,1678567926
454,mahibadhoo,3.7833,72.9667,27.25,78,17,5.16,MV,1678568135
455,ca mau,9.1769,105.15,22.34,83,34,2.34,VN,1678568135
456,payson,40.0444,-111.7321,5.7,56,75,2.57,US,1678567987
457,emerald,-23.5333,148.1667,22.41,96,41,3.93,AU,1678568117
458,coahuayana,18.7333,-103.6833,30.14,48,7,3.29,MX,1678568136
459,jalu,29.0331,21.5482,17.74,45,1,3.95,LY,1678568136
460,hirara,24.8,125.2833,21.18,74,32,6.02,JP,1678568137
461,lorengau,-2.0226,147.2712,26.62,80,94,0.76,PG,1678568137
462,palmer,42.1584,-72.3287,5.98,58,100,5.66,US,1678568138
463,shubarkuduk,49.1447,56.4872,0.32,99,95,0.62,KZ,1678568138
464,mandera,3.9366,41.867,31.13,41,99,10.56,KE,1678568138
465,pisco,-13.7,-76.2167,25.03,78,0,3.6,PE,1678568139
466,hofn,64.2539,-15.2082,-9.04,66,6,9.72,IS,1678568139
467,kavieng,-2.5744,150.7967,27.62,73,100,1.72,PG,1678568140
468,dicamay,16.7561,122.0037,16.59,92,0,1.21,PH,1678568140
469,cabedelo,-6.9811,-34.8339,29.37,74,99,5.08,BR,1678568140
470,huayang,34.4155,109.9939,-2.97,27,9,1.8,CN,1678568141
471,antalaha,-14.9003,50.2788,24.16,87,76,2.99,MG,1678568141
472,arlit,18.7369,7.3853,29.28,8,100,4.53,NE,1678568141
473,elliot,-31.3333,27.85,12.36,98,100,2.26,ZA,1678568142
474,abha,18.2164,42.5053,14.9,82,0,4.12,SA,1678568142
475,abalak,58.1286,68.5944,-6.71,91,50,4.25,RU,1678568143
476,karratha,-20.7377,116.8463,29.52,21,0,4.75,AU,1678568143
477,charters towers,-20.1,146.2667,24.08,78,2,2.92,AU,1678568144
478,keetmanshoop,-26.5833,18.1333,22.35,15,0,3.08,NA,1678568144
479,port arthur,38.8,121.2667,3.12,46,71,11.74,CN,1678568144
480,parnarama,-5.6817,-43.0933,26.15,86,100,1.14,BR,1678568145
481,christchurch,-43.5333,172.6333,17.49,94,77,1.03,NZ,1678568053
482,taikang,46.8333,124.4167,-9.51,46,0,4.01,CN,1678568145
483,maues,-3.3836,-57.7186,26.64,94,91,0.84,BR,1678568146
484,bam,29.106,58.357,18.55,42,1,1.17,IR,1678568146
485,graulhet,43.7669,1.9894,14.41,93,100,5.92,FR,1678568147
486,logan,41.7355,-111.8344,3.95,61,8,0.89,US,1678568110
487,tezu,27.9167,96.1667,19.87,33,3,2.07,IN,1678568147
488,khipro,25.8285,69.3772,25.11,18,99,4.41,PK,1678568148
489,ust-nera,64.5667,143.2,-23.19,97,100,1.91,RU,1678568148
490,syracuse,37.0881,15.2792,17.95,80,67,7.47,IT,1678567951
491,san policarpo,12.1791,125.5072,24.61,82,13,5.13,PH,1678568149
492,mahajanga,-15.7167,46.3167,26.01,94,20,0.51,MG,1678568150
493,zalantun,48.0,122.7167,-11.27,50,79,7.15,CN,1678568151
494,paso de carrasco,-34.8603,-56.0522,33.25,67,20,6.69,UY,1678568006
495,darnah,32.767,22.6367,16.95,63,99,9.71,LY,1678568151
496,rafai,4.95,23.9167,25.18,62,78,2.47,CF,1678568152
497,gao,16.6362,1.637,31.17,10,50,4.22,ML,1678568152
498,labuhan,-6.8844,112.2051,24.33,87,98,4.12,ID,1678568152
499,malanje,-9.5402,16.341,18.36,90,100,1.75,AO,1678568065
500,budingen,50.3,9.1167,1.52,73,73,0.29,DE,1678568153
501,nantucket,41.2835,-70.0995,3.41,80,100,12.86,US,1678567891
502,port macquarie,-31.4333,152.9167,21.61,94,100,1.85,AU,1678568154
503,mandan,46.8267,-100.8896,-3.01,81,40,7.72,US,1678568136
504,la palma,33.8464,-118.0467,19.01,92,100,4.63,US,1678568154
505,boguchany,58.3814,97.4531,-7.44,98,100,1.62,RU,1678568155
506,nome,64.5011,-165.4064,-9.35,81,100,1.5,US,1678568155
507,biak,-0.9131,122.8766,23.92,84,94,1.27,ID,1678568156
508,maniitsoq,65.4167,-52.9,-7.02,67,0,2.44,GL,1678568156
509,lasa,46.6166,10.7002,6.49,91,71,3.08,IT,1678568156
510,aviles,43.5547,-5.9248,16.77,82,75,1.54,ES,1678567985
511,gombong,-7.6072,109.5142,24.54,86,88,1.28,ID,1678568157
512,aden,12.7794,45.0367,25.39,84,100,8.94,YE,1678568157
513,avera,33.194,-82.5271,18.73,37,99,0.65,US,1678568158
514,vallenar,-28.5708,-70.7581,26.75,40,0,4.41,CL,1678568158
515,kashan,33.9831,51.4364,14.77,38,0,0.0,IR,1678568159
516,pacific grove,36.6177,-121.9166,18.06,86,40,4.12,US,1678568159
517,turukhansk,65.8167,87.9833,-2.3,95,100,10.21,RU,1678568159
518,bud,39.447,-86.1758,9.0,56,100,3.67,US,1678568160
519,mercedes,-34.6515,-59.4307,38.81,17,0,4.45,AR,1678568160
520,malinovoye ozero,51.6753,79.7825,2.58,96,100,5.21,RU,1678568161
521,sinnamary,5.3833,-52.95,25.87,73,89,4.95,GF,1678568161
522,bagdarin,54.4333,113.6,-20.25,86,100,0.5,RU,1678568161
523,progreso,21.2833,-89.6667,33.95,55,0,6.7,MX,1678568162
524,borogontsy,62.6683,131.1683,-10.21,94,100,3.13,RU,1678568162
525,bajil,15.0584,43.2851,27.12,65,92,2.07,YE,1678568163
526,parainen,60.3067,22.301,-4.92,89,100,3.56,FI,1678568163
527,arrecife,28.963,-13.5477,19.99,77,0,2.57,ES,1678568164
528,karonga,-9.9333,33.9333,23.61,85,100,2.46,MW,1678568164
529,ruston,32.5232,-92.6379,22.55,94,75,5.14,US,1678568164
530,koungou,-12.7336,45.2042,25.84,89,0,1.54,YT,1678568165
531,matara,5.9485,80.5353,23.75,89,72,3.81,LK,1678568165
532,fort nelson,58.8053,-122.7002,-12.25,47,40,2.57,CA,1678568162
533,paracuru,-3.41,-39.0306,27.84,78,82,3.9,BR,1678568143
534,reguengos de monsaraz,38.4253,-7.5349,12.74,93,96,2.59,PT,1678568166
535,saint-leu,-21.15,55.2833,24.48,93,87,3.65,RE,1678568167
536,abonnema,4.7084,6.7931,25.16,81,92,4.09,NG,1678568167
537,vardo,70.3705,31.1107,-9.01,62,6,10.8,NO,1678568168
538,dunedin,-45.8742,170.5036,17.67,68,29,1.34,NZ,1678568168
539,senanga,-16.1167,23.2667,23.46,49,31,2.23,ZM,1678568169
540,san vicente,-26.6167,-54.1333,29.91,40,26,2.43,AR,1678568169
541,wenling,28.3669,121.36,15.39,80,73,1.32,CN,1678568170
542,bodden town,19.2833,-81.25,30.0,58,20,4.63,KY,1678567971
543,bac lieu,9.285,105.7244,23.33,79,63,5.15,VN,1678568170
544,wajid,3.8093,43.2471,27.03,56,76,8.78,SO,1678568171
545,gardelegen,52.5252,11.3952,1.0,90,43,4.94,DE,1678568171
546,tarko-sale,64.9225,77.785,-6.51,93,99,12.35,RU,1678568172
547,labuan,5.2767,115.2417,25.2,88,20,2.57,MY,1678568173
548,krasnoselkup,65.7,82.4667,-1.36,96,100,10.23,RU,1678568157
549,aloleng,16.1307,119.7824,23.08,71,4,1.97,PH,1678568174
550,pingliang,35.5392,106.6861,-2.54,28,2,1.56,CN,1678568174
551,shiogama,38.3167,141.0333,6.58,79,59,2.2,JP,1678568175
552,ballina,-28.8667,153.5667,23.34,99,100,1.73,AU,1678568175
553,bukachacha,52.9833,116.9167,-25.35,93,16,1.78,RU,1678568176
554,kokopo,-4.352,152.2633,25.25,84,96,1.64,PG,1678568176
555,sarmanovo,55.2553,52.5891,-3.62,94,64,2.23,RU,1678568177
556,klyuchi,52.2667,79.1667,1.56,98,100,4.55,RU,1678568177
557,bandar,2.05,99.75,22.16,97,73,0.7,ID,1678568178
558,skelleftea,64.7507,20.9528,-13.8,100,81,2.06,SE,1678568178
559,westport,41.1415,-73.3579,6.27,64,100,6.69,US,1678568013
560,pringsewu,-5.3582,104.9744,22.22,94,98,0.94,ID,1678568179
561,catio,11.2833,-15.25,25.03,69,0,4.59,GW,1678568179
562,kudahuvadhoo,2.6708,72.8944,26.92,80,18,4.62,MV,1678568179
563,baglan,36.1307,68.7083,17.9,58,100,2.37,AF,1678568180
564,mamou,10.5,-12.0,27.06,17,90,1.22,GN,1678568180
565,muli,2.9167,73.5667,27.66,77,29,5.65,MV,1678568181
566,meulaboh,4.1363,96.1285,24.6,89,100,1.67,ID,1678568181
567,am timan,11.0297,20.2827,29.11,10,49,3.02,TD,1678568182
568,guiyang,26.5833,106.7167,12.27,100,100,2.0,CN,1678568182
569,wilmington,34.2257,-77.9447,15.95,39,0,5.14,US,1678568020
570,sfantu gheorghe,45.8667,25.7833,2.74,81,78,7.11,RO,1678568183
571,longavi,-35.9667,-71.6833,29.1,21,0,6.6,CL,1678567893
572,jumla,29.2747,82.1838,5.63,81,100,1.71,NP,1678568183
573,siocon,7.7061,122.1353,24.43,86,13,4.02,PH,1678568184
